[
  {
    "location": { "lat": 8.455522, "lng": -13.2943219 },
    "projectName": "",
    "locationName": "Freetown?",
    "description": "The Huracan Foundation's first project (in 2012) was based in Sierra Leone and was run in conjunction with the Craig Bellamy Children's Foundation"
  },
  {
    "location": { "lat": 18.5245649, "lng": 73.7228812 },
    "projectName": "Huracan FC India",
    "locationName": "Pune",
    "description": "Following our support for Vikas in 2013, his team went on to form an NGO Just for Kicks which now works with over 5,000 children each year across India and employees 80 people"
  },
  {
    "location": { "lat": 4.6482837, "lng": -74.2478938 },
    "projectName": "Hurcan FC Colombia (1)",
    "locationName": "Bogota",
    "description": "This project led by Henry May led to the creation of CoSchool, the social enterprise lestablished by Henry that focuses on chidren's social and emotional learning"
  },
  {
    "location": { "lat": -0.303099, "lng": 36.080025 },
    "projectName": "Huracan FC Kenya",
    "locationName": "Nakuru",
    "description": "Dickson's project was run in conjunction with Nakuru Youth Sports Association. The children still wear the Huracan kit they received back in 2013 although many of the original players have gone on to bigger and better things. One of the original members of Huracan FC Kenya is now playing in the Kenya Premier League"
  },
  {
    "location": { "lat": 8.21444, "lng": -76.59221 },
    "projectName": "Huracan FC Uraba (2)",
    "locationName": "Uruba",
    "description": "Daniel's project focused on reducing teenage pregnancies. Four girls in the team fell pregnant in the first year, but this number fell to zero in the second year of the project thanks to the support they received from Daniel and their focus on playing as part of the team."
  },
  {
    "location": { "lat": -46.89754, "lng": -49.161656011 },
    "projectName": "Huracan FC Brasil",
    "locationName": "Curitiba",
    "description": "Thad led a project based in a region of Brazil plagued by drug barons with a focus of providing a safe space for children where they could play football in their freetime"
  },
  {
    "location": { "lat": 6.4596, "lng": -75.5597 },
    "projectName": "Huracan FC San Pedro (3)",
    "locationName": "San Pedro",
    "description": ""
  },
  {
    "location": { "lat": 7.7554, "lng": -76.6554 },
    "projectName": "Huracan FC Carepa (4)",
    "locationName": "Carepa, Antioquia",
    "description": "Diana Paola worked with the children using football to improve their respect for each other and help build resilience"
  },
  {
    "location": { "lat": 14.5995, "lng": 120.9842 },
    "projectName": "Huracan FC The Philippines",
    "locationName": "Manila",
    "description": "Miggy was using football to focuus on improvind discipline and the boys attitude at his school in Manila"
  },
  {
    "location": { "lat": 24.6912, "lng": 78.4138 },
    "projectName": "Huracan FC Nepal (1)",
    "locationName": "Simle, Lalitpur",
    "description": "This project was based in a very remote village in the mountains of Nepal, three hours by car from the local town and then one hour on foot"
  },
  {
    "location": { "lat": 25.6516, "lng": -100.1059 },
    "projectName": "Huracan FC Mexico",
    "locationName": "Juárez, Nuevo León",
    "description": "Diana Paola's project had a strong focus on girls XXX"
  },
  {
    "location": { "lat": -33.4489, "lng": -70.6693 },
    "projectName": "Huracan FC Chile",
    "locationName": "Santiago",
    "description": ""
  },
  {
    "location": { "lat": 8.3545, "lng": -76.3406 },
    "projectName": "Huracan FC San Pedro (3)",
    "locationName": "San Pedro de Uraba",
    "description": "Jaime's project was based in a very rural school in San Pedro de Uruba, xxx"
  },
  {
    "location": { "lat": 39.757969, "lng": 46.741627 },
    "projectName": "Huracan FC Armenia",
    "locationName": "Hin Shen Village, Shoushi Region, Nagorno-Karabakh",
    "description": ""
  },
  {
    "location": { "lat": -5.1783, "lng": -80.6549 },
    "projectName": "Huracan FC Peru",
    "locationName": "Piura",
    "description": ""
  },
  {
    "location": { "lat": 27.9512, "lng": 85.6846 },
    "projectName": "Huracan FC Nepal (2)",
    "locationName": "Sindhupalchok",
    "description": ""
  },
  {
    "location": { "lat": 9.4034, "lng": -0.8424 },
    "projectName": "Huracan FC Ghana",
    "locationName": "Tamale",
    "description": ""
  },
  {
    "location": { "lat": 51.5906, "lng": -0.111 },
    "projectName": "Huracan FC St Frances De Sales",
    "locationName": "Haringey, London",
    "description": ""
  },
  {
    "location": { "lat": 19.6058, "lng": -99.0365 },
    "projectName": "Huracan FC CCSK Mexico",
    "locationName": "Ecatepec de Morelos, Mexico City",
    "description": ""
  },
  {
    "location": { "lat": 28.1545, "lng": 82.3235 },
    "projectName": "Huracan FC Nepal",
    "locationName": "Tulsipur Dang",
    "description": ""
  },
  {
    "location": { "lat": 1.7159, "lng": 33.6111 },
    "projectName": "Huracan FC Teso Uganda",
    "locationName": "Teso",
    "description": ""
  },
  {
    "location": { "lat": 0.3523274, "lng": 33.1206304 },
    "projectName": "Huracan FC Muwangi Uganda",
    "locationName": "Muwangi",
    "description": ""
  },
  {
    "location": { "lat": 51.5438701, "lng": -0.3863276 },
    "projectName": "Hurcan FC Northala",
    "locationName": "Northolt, W London",
    "description": ""
  },

  {
    "location": { "lat": 42.4613650708, "lng": -71.4890885353 },
    "projectName": "Huracan FC Jhamtse India",
    "locationName": "Tawang, Arunachal Pradesh",
    "description": ""
  },
  {
    "location": { "lat": 0.52356, "lng": 33.498817 },
    "projectName": "Huracan FC Isikiro Uganda",
    "locationName": "Mayuge District",
    "description": ""
  },
  {
    "location": { "lat": 0.501725, "lng": 33.498668 },
    "projectName": "Huracan FC Kanyabwina",
    "locationName": "Mayuge District",
    "description": ""
  },
  {
    "location": { "lat": 0.4369209, "lng": 33.4521728 },
    "projectName": "Huracan FC Bwiwula Uganda",
    "locationName": "Bwiwula Village Imanyiro Sub-county Bunya West County Mayuge District,",
    "description": ""
  }
]
